{
  "comment": "Коридоры «польские хабы ↔ ЕС» для fetch-routes.mjs. Координаты — центры городов (lng, lat). countries/cities — вручную, по фактическим трассам (для покрытия кампаний); urbanShare — грубая доля городских км.",
  "corridors": [
    { "id": "waw-ber", "from": { "name": "Warszawa", "lng": 21.0122, "lat": 52.2297 }, "to": { "name": "Berlin", "lng": 13.405, "lat": 52.52 }, "countries": ["PL", "DE"], "cities": ["Warszawa", "Łódź", "Poznań", "Berlin"], "urbanShare": 0.22 },
    { "id": "waw-ham", "from": { "name": "Warszawa", "lng": 21.0122, "lat": 52.2297 }, "to": { "name": "Hamburg", "lng": 9.9937, "lat": 53.5511 }, "countries": ["PL", "DE"], "cities": ["Warszawa", "Poznań", "Berlin", "Hamburg"], "urbanShare": 0.2 },
    { "id": "waw-rtm", "from": { "name": "Warszawa", "lng": 21.0122, "lat": 52.2297 }, "to": { "name": "Rotterdam", "lng": 4.4777, "lat": 51.9244 }, "countries": ["PL", "DE", "NL"], "cities": ["Warszawa", "Poznań", "Berlin", "Hannover", "Utrecht", "Rotterdam"], "urbanShare": 0.25 },
    { "id": "waw-par", "from": { "name": "Warszawa", "lng": 21.0122, "lat": 52.2297 }, "to": { "name": "Paryż", "lng": 2.3522, "lat": 48.8566 }, "countries": ["PL", "DE", "BE", "FR"], "cities": ["Warszawa", "Poznań", "Hannover", "Köln", "Liège", "Paryż"], "urbanShare": 0.25 },
    { "id": "waw-vie", "from": { "name": "Warszawa", "lng": 21.0122, "lat": 52.2297 }, "to": { "name": "Wiedeń", "lng": 16.3738, "lat": 48.2082 }, "countries": ["PL", "CZ", "AT"], "cities": ["Warszawa", "Katowice", "Brno", "Wiedeń"], "urbanShare": 0.22 },
    { "id": "waw-prg", "from": { "name": "Warszawa", "lng": 21.0122, "lat": 52.2297 }, "to": { "name": "Praga", "lng": 14.4378, "lat": 50.0755 }, "countries": ["PL", "CZ"], "cities": ["Warszawa", "Łódź", "Wrocław", "Praga"], "urbanShare": 0.22 },
    { "id": "waw-bud", "from": { "name": "Warszawa", "lng": 21.0122, "lat": 52.2297 }, "to": { "name": "Budapeszt", "lng": 19.0402, "lat": 47.4979 }, "countries": ["PL", "SK", "HU"], "cities": ["Warszawa", "Kraków", "Budapeszt"], "urbanShare": 0.2 },
    { "id": "waw-vno", "from": { "name": "Warszawa", "lng": 21.0122, "lat": 52.2297 }, "to": { "name": "Wilno", "lng": 25.2797, "lat": 54.6872 }, "countries": ["PL", "LT"], "cities": ["Warszawa", "Białystok", "Kowno", "Wilno"], "urbanShare": 0.18 },
    { "id": "waw-rix", "from": { "name": "Warszawa", "lng": 21.0122, "lat": 52.2297 }, "to": { "name": "Ryga", "lng": 24.1052, "lat": 56.9496 }, "countries": ["PL", "LT", "LV"], "cities": ["Warszawa", "Białystok", "Kowno", "Ryga"], "urbanShare": 0.18 },
    { "id": "waw-mil", "from": { "name": "Warszawa", "lng": 21.0122, "lat": 52.2297 }, "to": { "name": "Mediolan", "lng": 9.19, "lat": 45.4642 }, "countries": ["PL", "CZ", "AT", "IT"], "cities": ["Warszawa", "Katowice", "Wiedeń", "Mediolan"], "urbanShare": 0.2 },
    { "id": "waw-mad", "from": { "name": "Warszawa", "lng": 21.0122, "lat": 52.2297 }, "to": { "name": "Madryt", "lng": -3.7038, "lat": 40.4168 }, "countries": ["PL", "DE", "FR", "ES"], "cities": ["Warszawa", "Wrocław", "Frankfurt", "Lyon", "Saragossa", "Madryt"], "urbanShare": 0.15 },
    { "id": "poz-ber", "from": { "name": "Poznań", "lng": 16.9252, "lat": 52.4064 }, "to": { "name": "Berlin", "lng": 13.405, "lat": 52.52 }, "countries": ["PL", "DE"], "cities": ["Poznań", "Berlin"], "urbanShare": 0.25 },
    { "id": "poz-rtm", "from": { "name": "Poznań", "lng": 16.9252, "lat": 52.4064 }, "to": { "name": "Rotterdam", "lng": 4.4777, "lat": 51.9244 }, "countries": ["PL", "DE", "NL"], "cities": ["Poznań", "Berlin", "Hannover", "Rotterdam"], "urbanShare": 0.25 },
    { "id": "poz-par", "from": { "name": "Poznań", "lng": 16.9252, "lat": 52.4064 }, "to": { "name": "Paryż", "lng": 2.3522, "lat": 48.8566 }, "countries": ["PL", "DE", "BE", "FR"], "cities": ["Poznań", "Köln", "Liège", "Paryż"], "urbanShare": 0.25 },
    { "id": "poz-ham", "from": { "name": "Poznań", "lng": 16.9252, "lat": 52.4064 }, "to": { "name": "Hamburg", "lng": 9.9937, "lat": 53.5511 }, "countries": ["PL", "DE"], "cities": ["Poznań", "Szczecin", "Hamburg"], "urbanShare": 0.2 },
    { "id": "poz-muc", "from": { "name": "Poznań", "lng": 16.9252, "lat": 52.4064 }, "to": { "name": "Monachium", "lng": 11.582, "lat": 48.1351 }, "countries": ["PL", "DE"], "cities": ["Poznań", "Drezno", "Norymberga", "Monachium"], "urbanShare": 0.2 },
    { "id": "poz-bcn", "from": { "name": "Poznań", "lng": 16.9252, "lat": 52.4064 }, "to": { "name": "Barcelona", "lng": 2.1734, "lat": 41.3851 }, "countries": ["PL", "DE", "FR", "ES"], "cities": ["Poznań", "Frankfurt", "Lyon", "Barcelona"], "urbanShare": 0.15 },
    { "id": "gdn-ber", "from": { "name": "Gdańsk", "lng": 18.6466, "lat": 54.352 }, "to": { "name": "Berlin", "lng": 13.405, "lat": 52.52 }, "countries": ["PL", "DE"], "cities": ["Gdańsk", "Szczecin", "Berlin"], "urbanShare": 0.2 },
    { "id": "gdn-ham", "from": { "name": "Gdańsk", "lng": 18.6466, "lat": 54.352 }, "to": { "name": "Hamburg", "lng": 9.9937, "lat": 53.5511 }, "countries": ["PL", "DE"], "cities": ["Gdańsk", "Szczecin", "Hamburg"], "urbanShare": 0.2 },
    { "id": "gdn-ams", "from": { "name": "Gdańsk", "lng": 18.6466, "lat": 54.352 }, "to": { "name": "Amsterdam", "lng": 4.9041, "lat": 52.3676 }, "countries": ["PL", "DE", "NL"], "cities": ["Gdańsk", "Szczecin", "Berlin", "Hannover", "Amsterdam"], "urbanShare": 0.22 },
    { "id": "gdn-prg", "from": { "name": "Gdańsk", "lng": 18.6466, "lat": 54.352 }, "to": { "name": "Praga", "lng": 14.4378, "lat": 50.0755 }, "countries": ["PL", "CZ"], "cities": ["Gdańsk", "Łódź", "Wrocław", "Praga"], "urbanShare": 0.2 },
    { "id": "gdn-vno", "from": { "name": "Gdańsk", "lng": 18.6466, "lat": 54.352 }, "to": { "name": "Wilno", "lng": 25.2797, "lat": 54.6872 }, "countries": ["PL", "LT"], "cities": ["Gdańsk", "Olsztyn", "Kowno", "Wilno"], "urbanShare": 0.18 },
    { "id": "kat-vie", "from": { "name": "Katowice", "lng": 19.0238, "lat": 50.2649 }, "to": { "name": "Wiedeń", "lng": 16.3738, "lat": 48.2082 }, "countries": ["PL", "CZ", "AT"], "cities": ["Katowice", "Ostrawa", "Brno", "Wiedeń"], "urbanShare": 0.25 },
    { "id": "kat-fra", "from": { "name": "Katowice", "lng": 19.0238, "lat": 50.2649 }, "to": { "name": "Frankfurt", "lng": 8.6821, "lat": 50.1109 }, "countries": ["PL", "DE"], "cities": ["Katowice", "Wrocław", "Drezno", "Frankfurt"], "urbanShare": 0.22 },
    { "id": "kat-mil", "from": { "name": "Katowice", "lng": 19.0238, "lat": 50.2649 }, "to": { "name": "Mediolan", "lng": 9.19, "lat": 45.4642 }, "countries": ["PL", "CZ", "AT", "IT"], "cities": ["Katowice", "Wiedeń", "Villach", "Mediolan"], "urbanShare": 0.2 },
    { "id": "kat-bud", "from": { "name": "Katowice", "lng": 19.0238, "lat": 50.2649 }, "to": { "name": "Budapeszt", "lng": 19.0402, "lat": 47.4979 }, "countries": ["PL", "SK", "HU"], "cities": ["Katowice", "Żylina", "Budapeszt"], "urbanShare": 0.2 },
    { "id": "wro-ber", "from": { "name": "Wrocław", "lng": 17.0385, "lat": 51.1079 }, "to": { "name": "Berlin", "lng": 13.405, "lat": 52.52 }, "countries": ["PL", "DE"], "cities": ["Wrocław", "Berlin"], "urbanShare": 0.22 },
    { "id": "wro-col", "from": { "name": "Wrocław", "lng": 17.0385, "lat": 51.1079 }, "to": { "name": "Kolonia", "lng": 6.9603, "lat": 50.9375 }, "countries": ["PL", "DE"], "cities": ["Wrocław", "Drezno", "Erfurt", "Kolonia"], "urbanShare": 0.25 },
    { "id": "wro-prg", "from": { "name": "Wrocław", "lng": 17.0385, "lat": 51.1079 }, "to": { "name": "Praga", "lng": 14.4378, "lat": 50.0755 }, "countries": ["PL", "CZ"], "cities": ["Wrocław", "Praga"], "urbanShare": 0.25 },
    { "id": "wro-ant", "from": { "name": "Wrocław", "lng": 17.0385, "lat": 51.1079 }, "to": { "name": "Antwerpia", "lng": 4.4025, "lat": 51.2194 }, "countries": ["PL", "DE", "NL", "BE"], "cities": ["Wrocław", "Drezno", "Köln", "Antwerpia"], "urbanShare": 0.25 },
    { "id": "wro-bud", "from": { "name": "Wrocław", "lng": 17.0385, "lat": 51.1079 }, "to": { "name": "Budapeszt", "lng": 19.0402, "lat": 47.4979 }, "countries": ["PL", "CZ", "SK", "HU"], "cities": ["Wrocław", "Brno", "Bratysława", "Budapeszt"], "urbanShare": 0.2 },
    { "id": "lod-dui", "from": { "name": "Łódź", "lng": 19.456, "lat": 51.7592 }, "to": { "name": "Duisburg", "lng": 6.7623, "lat": 51.4344 }, "countries": ["PL", "DE"], "cities": ["Łódź", "Poznań", "Hannover", "Dortmund", "Duisburg"], "urbanShare": 0.28 },
    { "id": "lod-lyo", "from": { "name": "Łódź", "lng": 19.456, "lat": 51.7592 }, "to": { "name": "Lyon", "lng": 4.8357, "lat": 45.764 }, "countries": ["PL", "DE", "FR"], "cities": ["Łódź", "Wrocław", "Frankfurt", "Miluza", "Lyon"], "urbanShare": 0.2 },
    { "id": "krk-vie", "from": { "name": "Kraków", "lng": 19.945, "lat": 50.0647 }, "to": { "name": "Wiedeń", "lng": 16.3738, "lat": 48.2082 }, "countries": ["PL", "CZ", "AT"], "cities": ["Kraków", "Katowice", "Brno", "Wiedeń"], "urbanShare": 0.25 },
    { "id": "krk-fra", "from": { "name": "Kraków", "lng": 19.945, "lat": 50.0647 }, "to": { "name": "Frankfurt", "lng": 8.6821, "lat": 50.1109 }, "countries": ["PL", "DE"], "cities": ["Kraków", "Katowice", "Wrocław", "Drezno", "Frankfurt"], "urbanShare": 0.22 },
    { "id": "szc-rtm", "from": { "name": "Szczecin", "lng": 14.5528, "lat": 53.4285 }, "to": { "name": "Rotterdam", "lng": 4.4777, "lat": 51.9244 }, "countries": ["PL", "DE", "NL"], "cities": ["Szczecin", "Berlin", "Hannover", "Rotterdam"], "urbanShare": 0.25 }
  ]
}
